FIRE_ID,FIRE_NAME,YEAR,ACRES,latitude,longitude
CA3601111879719850712,TULARE 4,1985,1290.0,36.01068951399146,-118.79711775724613
CA3544311877719850503,ADELAIDE,1985,1054.0,35.44289907123969,-118.7756056242423
CA3672712076819850609,PONOCHE 2,1985,7508.0,36.73140094290336,-120.76690618531418
CA3590312056319850702,LOWES,1985,2708.0,35.90432107966359,-120.5657859761791
CA3673911825219850706,ONION,1985,8583.0,36.74302389513307,-118.24826366549368
CA3637912058319850706,LOSGATOSIV,1985,20357.0,36.38228739088959,-120.58174560650384
CA3599412057519850706,BIG SANDY,1985,3139.0,35.99207720249037,-120.57526587703543
CA3603712055919850706,ANDREWS,1985,5071.0,36.03807312817371,-120.56102357085915
CA4030512015819850519,SKEDADDLE,1985,1358.0,40.30574354322322,-120.15665808967431
NV4024611989419850619,DRY VALLEY,1985,15749.0,40.25223672376467,-119.88714209979342
CA4034312052019850807,BASS HILL,1985,2495.0,40.34264853963398,-120.5160788201918
CA3985112177219850611,ROCK CREEK,1985,1169.0,39.85055394376907,-121.77330153166469
CA3844612209319850831,MILLER,1985,2027.0,38.44616981758887,-122.09205568345448
ID4202111653519850707,GARAT 2,1985,5717.0,42.0139334914157,-116.53247183984935
NV4012811709119850707,COTTONWOOD,1985,16877.0,40.12200944579506,-117.09381592490472
NV4053711655619850710,FIRE CREEK,1985,15527.0,40.53848645081788,-116.56073423307159
NV3983611975019850718,BEDEL FLAT,1985,9490.0,39.84356030097864,-119.75776198449245
NV3922011851919850729,COCOON MTS,1985,8000.0,39.21969947781728,-118.51772374724726
NV3932011785119850620,EASTGATE2,1985,5827.0,39.32125257460938,-117.84827350960815
NV4026011966419850620,BIA 6,1985,10226.0,40.26288818891799,-119.66427223225644
CA3976912001319850708,HAL JNCT 2,1985,2427.0,39.765729313226515,-120.01229529219297
NV3985111997419850708,LONG VA,1985,12299.0,39.85377400162459,-119.98017728234356
NV3974811971719850708,HUNGRY VA3,1985,18177.0,39.75329884499132,-119.71847082379587
NV3949311938319850707,GOOSEBERRY,1985,29290.0,39.490643347801,-119.37036748129107
NV4184511634619850706,SHEEP CK,1985,3614.0,41.84810425549638,-116.34500180729708
NV4151411650019850707,FOURMILE,1985,3199.0,41.51963855518916,-116.49793268003043
NV4059811643919850707,BOBS CREEK,1985,2835.0,40.59735364561272,-116.43355016670402
NV4194611663019850710,YP DESERT,1985,16979.0,41.93695468006149,-116.6340982122058
NV4101311650119850708,ANTELOPE,1985,14608.0,41.015709474756754,-116.49300264713912
NV4017311588019850709,SADDLER,1985,1013.0,40.17190663790888,-115.88270774066596
NV4092811641319850710,NDF 9,1985,5773.0,40.92734399492891,-116.41358881733528
NV4113511663319850714,SILVER CLD,1985,15854.0,41.133784306012274,-116.6226162088817
NV4104311668119850727,CLEMENTINE,1985,4507.0,41.041697056887145,-116.68305752430219
NV4078911634419850817,PREMO STN,1985,3229.0,40.791272136991736,-116.34131235204742
NV4043711605319850817,TROUT CRK,1985,1016.0,40.43677880000676,-116.0553970801088
NV4066911589119850817,GRINDSTONE,1985,3157.0,40.67702287692006,-115.87102979552616
NV4117311687719850817,CLOVER RCH,1985,2018.0,41.170002685214186,-116.88182354327876
NV4102711543119850818,HALLECK,1985,1294.0,41.01781712697633,-115.42805841067907
NV4118411534519850819,ALLEN CRK,1985,2591.0,41.18287419478008,-115.34405359110376
NV4080111784919850726,ROSE PK,1985,4026.0,40.79979819859316,-117.85510605935164
NV4170911855219850728,HOWARD,1985,1453.0,41.70815564193073,-118.55011543585087
NV4115311714119850728,KELLEY2,1985,1245.0,41.15362518506194,-117.1421854054858
NV4060011803619850728,STAR,1985,1861.0,40.59770644042659,-118.03500612073599
NV4113811746519850817,EDEN 1,1985,15742.0,41.1525231836975,-117.4682880867995
NV4137311774819850817,PORCUPINE,1985,1281.0,41.37699887784237,-117.74965726689518
NV4134211737519850817,HOTSPG,1985,10884.0,41.35939220125318,-117.3691875998061
NV4091811770219850817,COSGRAVE,1985,2964.0,40.917429060446196,-117.70675815021579
NV4100611780919850817,JUNGORD,1985,40729.0,41.011109153275314,-117.78612902705895
NV4070411789919850818,BARBERCYN,1985,13792.0,40.701344393578516,-117.89460873770928
NV4179611776519850519,QUINN,1985,1663.0,41.7971315904528,-117.76075371416958
NV4123811716919850524,GETCHELL,1985,4940.0,41.236209759748775,-117.16483675341912
NV4129111737819850526,STEWART GP,1985,3442.0,41.293228983966074,-117.37440328476401
NV4172611879419850619,KNOTT CK.,1985,3686.0,41.72272931359595,-118.79459398908604
NV4122911799519850619,AMAX 1,1985,92482.0,41.25469528410173,-118.00549898327627
NV4110411727219850628,PETIT,1985,12087.0,41.10792576609432,-117.26022862433453
NV4044811932019850706,EMPIRE,1985,7021.0,40.453784912395825,-119.32072261004517
NV4069611736619850706,DIXIE,1985,41704.0,40.7095504330321,-117.35883381193152
NV4048111762019850706,SUMMITSPG,1985,5108.0,40.480260264389585,-117.62147154274804
NV4075411713219850706,VALMY,1985,14867.0,40.76169368882508,-117.1396316938877
NV3982811930519850707,NIXON,1985,1226.0,39.8282223814252,-119.30661202093295
NV4175111790919850707,SENTINEL,1985,74645.0,41.749914070795974,-117.93183517588022
NV4191411853519850708,WILDER,1985,39482.0,41.92570317791705,-118.53074087186322
NV4102911945819850708,MIDDLEFRK,1985,15950.0,41.022940104981,-119.46023206991217
NV4152111802619850708,DOUBLEH,1985,26856.0,41.53721328646541,-118.03434791564013
NV4098111952519850709,FOX CYN,1985,1302.0,40.98119894241564,-119.52249572136111
CA3815612073919850917,BEAR MTN. 4,1985,1473.0,38.153874167886535,-120.73674561469137
CA4056412196919850827,BLUE MTN. WEST,1985,4627.0,40.5636583480122,-121.97057221226834
CA3460411991919850912,UNNAMED,1985,2720.0,34.60082435457619,-119.92182966763123
CA3586112056119850717,UNNAMED,1985,1519.0,35.8604442075134,-120.5619250656058
CA3885912285619850613,UNNAMED,1985,9655.0,38.85697421360131,-122.8604935650582
CA3662312097919850526,BUMB,1985,1298.0,36.63110495542783,-120.99070519988557
CA3634812146719850610,PINEY CREEK,1985,1594.0,36.34983924849715,-121.46669764232105
CA3606512116519850708,CHERRY,1985,41654.0,36.06844032757651,-121.1533721664571
CA3269911692719850630,MILLER,1985,7809.0,32.70068842581846,-116.91858269748248
CA3340011734219850701,ROBLAR,1985,7453.0,33.40120498353335,-117.34473437267053
CA3293211694719850727,SYCAMORE,1985,1012.0,32.93092486534686,-116.94666315729073
CA3406011868219851014,PIUMA FIRE,1985,5425.0,34.04736506281666,-118.69672493891741
CA3424911865419851014,BOX CANYON (PIONEER) FIRE,1985,1247.0,34.24788458924006,-118.65198435592802
CA3411711885719850630,SHERWOOD FIRE,1985,3897.0,34.105370811148724,-118.86445367102112
CA4059212068919850708,MURRER,1985,1201.0,40.59093293506541,-120.69015401490131
CA3880512252719850907,HIDDEN VALLEY,1985,2042.0,38.804405065322605,-122.5236900367748
CA3874612210319851008,BALD MT.,1985,5339.0,38.751476601732996,-122.10525699407363
CA3585712139119850803,UNNAMED,1985,7265.0,35.86247304531159,-121.3881164785978
CA3391911778419850811,SHELL,1985,1425.0,33.92147999432733,-117.78414306951026
CA3715812157619850708,FINLEY,1985,1875.0,37.160481785779076,-121.57457231997475
CA3809512075419850704,GANN,1985,1008.0,38.09470174140054,-120.75458291426958
CA3428411864819851014,HUMMINGBIRD,1985,2425.0,34.286859833762165,-118.65297884631825
CA3425211892819851014,PEACH HILL,1985,1992.0,34.2511589444903,-118.89936345806608
CA3443011922019850703,BLACK MOUNTAIN,1985,1250.0,34.42967293820096,-119.22384707197725
CA4029612006919850716,UNNAMED,1985,1651.0,40.2883593026263,-120.0692865778089
CA3341311738919851004,UNNAMED,1985,1062.0,33.41512788403171,-117.38831925817038
CA3776811881719850808,OWENS,1985,3067.0,37.76579734108305,-118.81989747604968
CA3602412138219850605,WIZARD,1985,8561.0,36.030890870010275,-121.36097535988274
CA3528712050619850701,LAS PILITAS,1985,75841.0,35.29601210938751,-120.49403267619493
CA3451011935419850701,WHEELER 2,1985,126854.0,34.499237936430106,-119.33150078471252
CA3622712144019850702,SECO,1985,2094.0,36.2285333991553,-121.4397155296335
CA3606612146119850706,GORDA-RAT,1985,52474.0,36.10291257284129,-121.54683309526773
CA3441311914919851014,FERNDALE,1985,46724.0,34.39490036506188,-119.12169855918268
CA3386711663319850627,CABANZO,1985,14091.0,33.865550065560846,-116.66409872191092
CA3545811870719850628,RICH BAR,1985,8141.0,35.45538822689433,-118.70665219466326
CA4095612245219850718,DELTA,1985,1657.0,40.955284727398485,-122.45204648374617
CA4080812321419850726,TRELOAR COMPLEX,1985,4077.0,40.80996821181879,-123.21531997618375
CA3763211995819850802,BRICEBURG,1985,1091.0,37.631935108491774,-119.95676321393219
CA3454011961519850523,UNNAMED,1985,2620.0,34.54274393777201,-119.61398065907656
CA3481412033519850912,UNNAMED,1985,1112.0,34.815270158849984,-120.33599850185688
CA3504412005619850726,UNNAMED,1985,2356.0,35.043396786391675,-120.05542877335677
NV4187811891819850619,MCGEE MT,1985,1239.0,41.87706893798972,-118.91989922706719
CA3407111891719851014,DECKER,1985,6945.0,34.06355227260781,-118.91569583285538
CA3695911862619850625,DOUGHERTY,1985,1656.0,36.961007735114876,-118.62377646573209
CA3671511866219850728,SUGARLOAF,1985,2882.0,36.71665208940598,-118.65876466446726
CA3793011957119850630,PATEVALLEY,1985,1079.0,37.92821928951066,-119.56988497138646
CA3816312073019850802,UNNAMED,1985,1731.0,38.16056399370086,-120.72844755491704
CA4064712197519850629,UNNAMED,1985,2415.0,40.6477809244855,-121.97486037802163
CA4112412279219850727,WAGNER COMPLEX,1985,1248.0,41.113867497202655,-122.7900506201606
CA3706211934319850715,SYCAMORE 1,1985,1469.0,36.98107809295642,-119.33936877538572
NV4190011643419850707,CIRCLE CK,1985,1241.0,41.88205257795161,-116.41963730414112
NV4035011641819850709,CRESENT,1985,10059.0,40.49270871547304,-116.4074874040274
NV4015011675119850707,BALD,1985,2302.0,40.148936296098825,-116.71964940990316
NV3990011713419850706,NAT OUT 7,1985,6062.0,40.00869885678179,-117.27537692875791
NV3990011726819850706,ANTELOPE 2,1985,1169.0,40.08220177464841,-117.29450823588353
NV4076711773419850619,SONOMA,1985,1010.0,40.756598752551234,-117.72491472546818
CA3763312080119850812,FALLS 2,1985,3546.0,37.59721197235125,-120.29332134870252
CA3882512133919850703,ROADSIDE 3 4 5 6,1985,1009.0,38.812448718938164,-121.33509392683015
NV4143111761119850706,WASH ONIEL CREEK,1985,8466.0,41.4270089374763,-117.61988303276742
CA3802311981719850725,BARTLETT,1985,1052.0,38.02440889718306,-119.8213315152461
CA3803311978419850725,KENDRICK,1985,1252.0,38.02190298776456,-119.76854911914813
CA3764511959919850728,LOST BEAR,1985,1002.0,37.645755980104255,-119.59856312227859
NV4011511777819850525,SOU HILLS,1985,6087.0,40.10639653983594,-117.77849481671592
NV4004711748119850707,CAIN MYN,1985,6768.0,40.04682912484555,-117.48932612423037
NV4008011617619850727,TABLE 2,1985,12711.0,40.06975089478773,-116.17076240565652
NV4070811765919850817,SHEEPCYN,1985,11333.0,40.711165321820744,-117.65592661522233
CA3714112191819850707,LEXINGTON,1985,11550.0,37.15413770068859,-121.94265105427348
NV4107211679419850706,ROCK CRK 2,1985,38454.0,41.08271710870715,-116.82280505810456
CA3600012102719870707,UNNAMED,1987,2172.0,36.00134335450856,-121.0264722538818
CA3536512051719870804,PILITAS,1987,1056.0,35.36533501093994,-120.51597224490969
CA3641011879419870829,CASE,1987,4960.0,36.407733925163,-118.79478845596853
CA3576511828619870830,FAY,1987,10177.0,35.764454829797835,-118.28467383465384
CA3389411671019870614,VERBENIA,1987,1384.0,33.89499023141711,-116.7083326005141
CA4062412045019870627,BLACKS,1987,1135.0,40.622973227025156,-120.45010022930687
CA3975012017819870613,USFS 10,1987,1270.0,39.75435001423426,-120.17874371673796
NV4022811588619870821,BAILEY,1987,1070.0,40.22865482131932,-115.88554919653804
NV4087511652519870902,NDF 25,1987,3819.0,40.88185265444867,-116.52141776564122
NV3949611519719870712,UHALDE,1987,3865.0,39.49281919775332,-115.19717096746226
NV3603411554619870612,ZIPPER,1987,6306.0,36.035507943744605,-115.5450321293889
NV4079911789619870806,ROSE CREEK,1987,14347.0,40.782028196731254,-117.89350536101925
NV4189711769519870813,8 MILE,1987,1316.0,41.894217635215284,-117.69135922301037
NV4158111824919870912,KINGS FIRE,1987,3447.0,41.575999993099444,-118.25173406539002
NV4198611773319870414,BIA 2,1987,1035.0,41.98229370262078,-117.74049572722711
NV4177211765819870701,UC,1987,2059.0,41.768678952891904,-117.65592602901734
NV4161111808019870715,COYOTE,1987,2675.0,41.61026313584711,-118.07924989324191
CA3488111871919870401,SYCAMORE CANYON,1987,1894.0,34.8813278720165,-118.72184285016085
CA3512212043719870825,BAR-4-L BOYSEN RI,1987,1481.0,35.12299338582694,-120.43786364631814
CA3781011959119870801,UNNAMED,1987,1319.0,37.81083039785302,-119.59225844377833
CA3512811868019870911,UNNAMED,1987,3285.0,35.12926979199127,-118.68091019831569
CA3516711873119870911,UNNAMED,1987,1219.0,35.1672892281243,-118.7314812621744
CA3510711875219870505,UNNAMED,1987,2437.0,35.106277053864645,-118.75068103207504
CA3689911932019870801,UNNAMED,1987,2273.0,36.89754974771967,-119.32234879419244
CA3895812277519870416,UNNAMED,1987,1789.0,38.95906947340408,-122.77437756854444
CA3630012029019870514,STATECA 17,1987,2170.0,36.294280035341835,-120.29280095293271
CA3289011701019870618,ASSIST 79,1987,2049.0,32.89271830932925,-117.0229587893009
CA3623312044519870519,NUNEZ,1987,1584.0,36.23650843926649,-120.44521788957114
CA3684611939119870831,RED MOUNTAIN,1987,4351.0,36.84831159017256,-119.39279117854456
CA4175612352619870830,TEN BALD,1987,19635.0,41.75483596731898,-123.53070386607492
CA4139712116519870831,LIGHTNING 120 (CRANK),1987,3546.0,41.41035216915628,-121.16701470335302
CA3968312107719870831,ASSIST P.N.F.,1987,1234.0,39.6828433677559,-121.07863587579709
CA3318111704219871004,GRADE,1987,2210.0,33.18265488072023,-117.04237358921645
CA3360911722119871003,ANTELOPE,1987,3238.0,33.6106219932376,-117.22766822408795
CA3751312135519870507,GERBER,1987,1398.0,37.51365279007774,-121.35653882578771
CA3504112034719870505,SLU-0864,1987,3546.0,35.047053016864716,-120.34962410286947
CA3431911917319871111,PEPPERTREE CONTROLLE,1987,1242.0,34.316084830456795,-119.17264483830293
NV4023211565619870731,LINDSEY CREEK,1987,3337.0,40.23297756765425,-115.63886379162453
NV4199411573919870821,TABLE PLATEAU,1987,5183.0,41.9907726884582,-115.73558397035403
NV4138411591719870822,LITTLE THORP,1987,1746.0,41.38473048632876,-115.91764457500017
NV4196211746219871012,EAST QUINN,1987,3130.0,41.977021168311154,-117.46116897750763
CA3968012006219870613,BALLS CANYON 2,1987,1285.0,39.67946860240612,-120.0624833121661
CA3878911982219870729,ACORN,1987,6341.0,38.78950129070571,-119.81907700257202
CA3459411855519870920,RUBY,1987,10001.0,34.59120206015645,-118.55711181369496
CA3334511692919871003,PALOMAR,1987,10256.0,33.348381955197674,-116.92989099672134
CA3761311891419870830,LAUREL,1987,1120.0,37.61168324450055,-118.91465724245931
CA4141212331619870830,YELLOW 2,1987,53626.0,41.368696315110284,-123.30127932162796
CA4110812319119870830,ST.CLAIRE,1987,8548.0,41.11185037310523,-123.18972793492804
CA4123912321119870830,GLASGOW,1987,13496.0,41.239181923300904,-123.21341156392265
CA4119312328919870830,HOTELLING,1987,17616.0,41.19249183405971,-123.2948736618713
CA4189812322019870830,FORT COPPER,1987,36333.0,41.90491739490928,-123.21481204718512
CA4179312283119870830,BEARCAT,1987,2860.0,41.790632365895426,-122.83022946995378
CA4165612314419870830,KELSEY,1987,3685.0,41.65673847937417,-123.14593384851511
CA4184912355119870830,ELK LICK,1987,1451.0,41.85068019050167,-123.57487554194464
CA4135112309619870831,NIELON,1987,1552.0,41.35077194926779,-123.09559042300666
CA4175812328419870830,GULCH,1987,10973.0,41.75810621479385,-123.28954911700048
CA4193012339419870830,THOMPSON,1987,5153.0,41.93139518786982,-123.39991571337261
CA4181712327419870830,CHINA,1987,2941.0,41.81715786361252,-123.27261502156838
CA4183412334819870830,SLATER,1987,5845.0,41.83163660042354,-123.34727270667182
CA4163812338919870830,KING TITUS,1987,71390.0,41.633324387359266,-123.38883863715701
CA4174812318019870901,LAKE,1987,18425.0,41.74724304209547,-123.17810796607425
CA4078012142619870831,LOST,1987,23599.0,40.783532783916954,-121.42450432472795
CA3466411915219871002,FISH,1987,4052.0,34.664008019982,-119.15285155340766
CA3935312277119870901,FOUTS,1987,16892.0,39.35528741054532,-122.77667341136454
CA3954212303919870831,MENDENHALL,1987,54162.0,39.541627626474636,-123.03428927983268
CA3941712307519870929,LAUDER,1987,2040.0,39.41520040282436,-123.07978505808968
CA4146512132219870715,QUAKING,1987,4417.0,41.465332964871486,-121.32170435454002
CA4058812355519870830,BLAKE,1987,1522.0,40.588713565687996,-123.55655260807168
CA4010812030519870830,CLARK,1987,39194.0,40.110447846571674,-120.31816533677939
CA3427111744319870531,TRUCK,1987,1084.0,34.27062329136247,-117.44253700229696
CA3432611717719870823,JEEP,1987,1527.0,34.3250599288814,-117.17686049346716
CA4119812272519870831,DOE,1987,2463.0,41.1813956191164,-122.76636559227343
CA4009112291519870902,LAZYMAN,1987,1497.0,40.09473985612051,-122.91689617341402
CA4048312320019870830,PEANUT,1987,6064.0,40.48204807931589,-123.20353742399709
CA4050112330719870830,FRIENDLY,1987,3474.0,40.5025600967367,-123.30373524924828
CA4052712339819870830,COLD,1987,14801.0,40.523190195093335,-123.39142182244798
CA4065812346619870830,GULCH,1987,6552.0,40.65859566025626,-123.46448605460091
CA4057812346719870830,JESSIE,1987,3489.0,40.577571199018074,-123.46930376471333
CA4060612338819870830,TRINITY,1987,1341.0,40.60814694069128,-123.39148834654601
CA4065412339719870830,BEAR,1987,5270.0,40.65436178321126,-123.3971825412679
CA4040412333919870830,FLUME,1987,12198.0,40.406107348080944,-123.33617045611679
CA4044812339819870830,WALLOW,1987,3425.0,40.44729425167821,-123.39586884523221
CA4083712302219870830,EAST,1987,10532.0,40.83911012083798,-123.01573824438472
CA4090212304019870830,RIPSTEIN,1987,3404.0,40.90685458320407,-123.04018147128312
CA4105412315719870830,CHINA,1987,9132.0,41.055876193338754,-123.1515618429866
CA4099312310719870901,STRAUSE,1987,6395.0,40.992649881368536,-123.10160552254607
CA3721711931119870622,UNNAMED,1987,1445.0,37.21849318621695,-119.31071194170319
CA3779612006019870830,HAMM,1987,39333.0,37.80281005193416,-120.07190767806733
CA3773211993719870830,LARSON,1987,49250.0,37.72206584390913,-119.93338754273944
CA3791712013219870831,PAPER,1987,49296.0,37.92303175228131,-120.1221009315569
CA3793111987719870903,JARREL,1987,1756.0,37.93086568982525,-119.87435957542834
CA3955112096819870829,INDIAN,1987,8803.0,39.55497296540717,-120.9701629530577
CA3944912076419870829,PALMER,1987,2130.0,39.448503483061025,-120.76364384617324
CA3904112055819870831,BIG,1987,1048.0,39.04224206989382,-120.55806286581547
CA4199712363419870830,LONGWOOD,1987,10370.0,41.99935306821195,-123.6285370070887
CA3694211921919870801,UNNAMED,1987,1318.0,36.94257009983003,-119.21836403689626
CA3801911975119870628,FROG,1987,3451.0,38.03045595446298,-119.74197175786914
CA3766611959519870723,LOST BEAR,1987,1823.0,37.66454631303009,-119.59606406974963
CA3407511623319870831,PAUL,1987,1145.0,34.01016311302085,-116.24618193498152
CA3816012073319871015,BEAR MOUNTAIN 10,1987,1261.0,38.16147758984744,-120.72935543567084
NV4054111597419870821,BULLION,1987,5276.0,40.5395599901955,-115.97026252957265
CA3374811752419870909,SILVERADO,1987,5553.0,33.75386474334676,-117.52012200598331
CA4009212322519870831,TRAVIS,1987,11989.0,40.102282203511876,-123.20987499496142
CA3281011635519890621,UNNAMED,1989,1847.0,32.81676332199228,-116.35599706805269
CA3656911816319890330,OLIVAS II,1989,1229.0,36.567952661612125,-118.15762916563587
CA3545012054919890727,CHISPA,1989,9869.0,35.4533034575499,-120.54541173668161
CA3260211651219890705,DOGPATCH 2,1989,1188.0,32.602830731095764,-116.50980459372913
CA3374411740219890705,CONCORDIA,1989,1645.0,33.74421241212118,-117.40100360983952
CA3382811687619890714,POPPET,1989,1239.0,33.83122919054019,-116.87356314436853
NV3979511585119890709,WALTERS,1989,2594.0,39.794100621213026,-115.84627773600474
NV4097611676819890814,ROCK CREK,1989,3518.0,40.97587144948032,-116.76256306798669
NV4036311822519890629,LIMERICK,1989,4058.0,40.36490576235305,-118.22330306148787
NV4123811739819890714,WILLOW,1989,2673.0,41.23828818700226,-117.39424605144389
CA3331611676519890410,WESTFORK CHAPARRAL,1989,1449.0,33.315970063627105,-116.76430073376355
CA3657311903619890822,BEAR MTN VMP,1989,2373.0,36.5719361504107,-119.03842514197422
CA3489811867019890106,LECHERIA CANYON,1989,1534.0,34.89871954418478,-118.6718074562656
CA3636112107019890728,UNNAMED,1989,1864.0,36.362782638564006,-121.07503537968059
CA4045912280819890811,UNNAMED,1989,6586.0,40.44511802351448,-122.8079201583837
CA3488112062219890614,COCHEO,1989,1510.0,34.88172755273849,-120.62253832438154
CA3855212199419890531,WINTERS,1989,1038.0,38.55145608485989,-121.99337623070713
CA3923712253519890827,UNNAMED,1989,1058.0,39.23738117358785,-122.53472065360114
CA3693111912219890729,UNNAMED,1989,8742.0,36.93278821207409,-119.11369759517042
CA3327711740119890723,UNNAMED,1989,2303.0,33.27691050223491,-117.40361041529499
CA3341011741819890317,UNNAMED,1989,1791.0,33.40936417071012,-117.41528253059707
CA3824712190119890703,UNNAMED,1989,2059.0,38.24452124965435,-121.90083084619368
NV4185511758419890703,8 MILE,1989,4343.0,41.85694902594261,-117.57899132656169
CA3464911838419890628,SAN FRANCISCO,1989,2343.0,34.64454948328032,-118.38322447828052
CA3440411844019890730,PACY,1989,1403.0,34.395684645570206,-118.43457535118941
CA3363411744519890627,ORTEGA,1989,8503.0,33.6242806045822,-117.41489738305673
CA3285711638619890709,THING 2,1989,4650.0,32.861027590648,-116.38736088666013
CA3342111694719890729,VAIL,1989,15632.0,33.417553095714375,-116.94509869186345
CA3350811746719891018,MATEO,1989,13280.0,33.50903506120446,-117.46618420831457
CA3629012181919890708,MOLERO II,1989,2407.0,36.2911472939318,-121.82018385396219
CA4005612034019890708,RACK,1989,3460.0,40.04946292955214,-120.3501904362931
CA4021612045219890707,EAGLE,1989,4479.0,40.214228716467915,-120.45641080829294
CA3984112063819890906,LAYMAN,1989,4637.0,39.83960273984873,-120.64073951731565
CA3698611933819890723,BURROUGH,1989,1483.0,36.986488043047714,-119.33963142883297
CA3711311946719890728,POWERHOUSE,1989,11532.0,37.11144721402507,-119.46693624060818
CA3363711677119890621,UNNAMED,1989,4912.0,33.6374695546528,-116.76721963442444
CA3777011977019891016,PW3,1989,1725.0,37.77314015716858,-119.77021937758938
CA3407511899419891029,PACIFIC,1989,3178.0,34.07561650367687,-118.99133184526059
CA3903712255819890320,UNNAMED,1989,2674.0,39.03879996571582,-122.55994764042102
CA3912812251919891201,UNNAMED,1989,2939.0,39.11129602852496,-122.52001285186329
CA4192112150719890302,TULE MARSH,1989,1539.0,41.914140305304926,-121.51228629437611
CA3400311800319890703,TURNBULL FIRE,1989,1338.0,34.004494104426335,-118.00116168379782
CA3393511769419891130,YORBA,1989,7028.0,33.93395977688392,-117.7293259615953
CA3261711666919910617,BARRETT,1991,1262.0,32.61771098506523,-116.67034285687978
CA3876512278719911020,GEYSERS,1991,4993.0,38.76586428314114,-122.78709971474092
NV4101311681419910803,IZZENHOOD,1991,6273.0,41.00455085761945,-116.8202067912433
NV4136311656619910817,COYOTE,1991,2509.0,41.36274538813558,-116.56765645879958
NV4149811635719910819,SILVER,1991,1277.0,41.50156128001974,-116.35849739272079
NV4130811625719910820,TUSCARORA,1991,1050.0,41.30899710122294,-116.2566035059193
NV4182011845019910821,LOVELY,1991,3599.0,41.822849441126436,-118.44670143199286
NV4113711731819911007,OSGOOD,1991,3820.0,41.1356051589326,-117.31720437877321
CA4110912027719910912,DEADHORSE RES. H,1991,2482.0,41.10783429691389,-120.29973299431886
CA3973612319219910916,DIAMOND H VMP,1991,1210.0,39.7356080704114,-123.1907673621947
CA3888612298219911018,PIETA CREEK VMP,1991,1912.0,38.884583525943576,-122.98055575283298
CA3812012075119910131,BEAR MTN. 1,1991,3289.0,38.12223289960447,-120.75028087413821
CA3785012222719911022,TUNNEL,1991,1838.0,37.848248690459144,-122.22957512759832
NV4161611770919910820,REBEL,1991,1490.0,41.61633271580614,-117.7137408540485
NV4187711599719910823,MINERVA,1991,3090.0,41.87596143685196,-115.99476924988483
CA3455811920219911020,LION,1991,1766.0,34.55614283229994,-119.20190472560584
CA3431611760419910821,STOCKTON,1991,1505.0,34.31577366529276,-117.60444998106442
CA4050512315819910918,ROCK,1991,1115.0,40.50434919728731,-123.1577360252162
CA3798011978319910906,FROG CREEK,1991,2970.0,37.979312314706526,-119.78332761932751
CA3770411954219910924,ILL,1991,3096.0,37.705003582005595,-119.54348839575913
ID4202011517819910827,FLAT CK,1991,1174.0,42.008958278185325,-115.16888975808969
NV4180011628419910820,RESERVATION HILL,1991,4860.0,41.78669683291776,-116.16966889575579
CA3655211908319910922,BLUE MOUNTAIN,1991,2482.0,36.57422944227028,-119.08082563729273
CA3633711886419911001,VAN GORDEN VMP,1991,1115.0,36.335475763915284,-118.8700750136933
CA3740312030819911130,LA PALOMA,1991,3017.0,37.161054378315185,-120.08853964913811
CA3532811956919930510,ELK HILLS 2,1993,5376.0,35.31275544039532,-119.57160048792655
CA3607712012919930510,PGE 13,1993,1591.0,36.076928546659175,-120.12787230651665
CA3643012120119930611,METZ,1993,1527.0,36.43100969014941,-121.20434214914286
CA3592211936519930614,PIXLEY,1993,1346.0,35.9188283429364,-119.36046539472021
CA3574012007419930620,ORCHARD,1993,22309.0,35.741875462600355,-120.07054624762297
CA3524611953619930622,VALLEY,1993,3790.0,35.24771675819928,-119.53846702858749
CA3630012144819930801,RANCHO,1993,5566.0,36.30072531431952,-121.44991066825398
CA3304211701419931102,OLD COACH,1993,1806.0,33.04292394369918,-117.01432799446948
CA3469811712319930720,STODDARD 4,1993,2493.0,34.698989157508,-117.12282558214775
NV4051911666819930810,WHIRLWIND,1993,3760.0,40.51833293251054,-116.6644332816573
NV4067811625319930906,MARYS CR,1993,1461.0,40.67900620956827,-116.25156094791448
CA3732012138019931018,SHEEP THIEF,1993,3126.0,37.320048084638906,-121.3786216899675
CA3548112026719930614,UNNAMED,1993,1435.0,35.4805226228424,-120.26752235722077
CA3554811897419930801,UNNAMED,1993,1855.0,35.548634325027486,-118.97507722996527
CA3599111998819930902,UNNAMED,1993,1173.0,35.9903920066811,-119.9889455392794
CA3606012009619930801,UNNAMED,1993,1037.0,36.05857983109392,-120.09634051151876
CA3484512056319930615,CASMALIA,1993,1368.0,34.84520365649589,-120.56285473138948
CA3406211707319931027,MILL CREEK,1993,4475.0,34.06133155792426,-117.07322717603738
CA3502511902319930510,SABODAN,1993,1950.0,35.02250013575399,-119.02311870258603
CA3407011864919931102,OLD TOPANGA FIRE,1993,16780.0,34.06428386160479,-118.65796688654133
CA3425711863219931027,CHATSWORTH FIRE,1993,1952.0,34.25776394316683,-118.62882574193152
CA3691812085119930731,PGE 4,1993,5594.0,36.92026441103495,-120.85520031116735
CA3322211643919930616,GRADE,1993,1640.0,33.22359320076212,-116.44007947953263
CA3312011695319931027,GUEJITO,1993,17141.0,33.121798122741446,-116.94264914904547
CA3359211779419931027,LAGUNA FIRE,1993,14587.0,33.59173388010539,-117.7982230372163
CA3363611702719931026,CALIFORNIA,1993,23899.0,33.6332223561611,-117.02899183450336
CA3397611729319931027,BOX SPRINGS,1993,2788.0,33.97916075303822,-117.29341135045786
CA3351711677119931027,TRIBAL,1993,2110.0,33.518723083530645,-116.7682565831577
CA3438211915319931027,STECKEL,1993,26202.0,34.37889386690028,-119.15166369333686
CA3522311949619930513,UNNAMED,1993,3076.0,35.22056353665091,-119.49693363700112
NV3804311582219930729,QUINN CANYON,1993,2009.0,38.045080964412115,-115.82012674490213
NV4163911774119930805,WILLOW CREEK,1993,2596.0,41.63908429570504,-117.73895174482774
CA3419611809019931027,KINNELOA,1993,5620.0,34.1949014633368,-118.08806010992922
CA3314611689619930509,BODEN,1993,1424.0,33.14558795662211,-116.89586960417672
CA3357911750119931027,ORTEGA,1993,20912.0,33.58401225451465,-117.49768471149054
CA3472511995719930925,MARRE,1993,44309.0,34.726593243108226,-119.94850198272067
CA3451411930419931027,WHEEL,1993,1459.0,34.51387843760871,-119.30344817698011
CA3411411897719931026,GREEN MEADOWS,1993,38115.0,34.10895119205743,-118.9683082684702
CA3681111857419930622,BUCK PEAK,1993,2272.0,36.81156237390218,-118.57594161002989
CA3262011697119930718,UNNAMED,1993,4249.0,32.61619035726671,-116.97025128886084
CA3765812154019930628,UNNAMED,1993,3164.0,37.65607327305975,-121.53891927918501
NV4019211547719930511,EAST SUMP 2,1993,1957.0,40.19390904541404,-115.46049290270007
CA3551711899219930924,WELLER,1993,1040.0,35.48574957271272,-118.97773753614288
CA3517811715019930827,OPAL 2,1993,8223.0,35.182617337604,-117.15061476956453
CA3790111988219931110,NORTH MOUNTAIN,1993,1204.0,37.906140803415006,-119.88641526522271
CA3297911674819930509,EAGLE,1993,5784.0,32.9834176571963,-116.7470005124153
CA3396411692319931102,REPPLIER,1993,5817.0,33.96190538464761,-116.91544975423818
CA3524011954519860717,DERBY ACRE,1986,1655.0,35.23993922229295,-119.54414459426988
CA3637812142519861106,RIVER,1986,4615.0,36.375030723434335,-121.42233977131875
CA3518311714319860530,NSCRIPTION,1986,4710.0,35.183806238762976,-117.14016449847918
CA3258111676819860904,MINE,1986,1031.0,32.58186192967018,-116.7679512510661
CA4037712021119860718,WENDEL,1986,1639.0,40.37577404010887,-120.21438301161
ID4205011642119860803,JUNIPER,1986,11824.0,42.03742495659536,-116.4155465891422
NV3963011665919860703,GRASS VAL,1986,7777.0,39.627994725865356,-116.65258530879983
NV3932811933319860809,CHURCHL BT,1986,3213.0,39.31629551910967,-119.31704770707123
NV4062311657119860619,WHIRLWIND,1986,4306.0,40.62648847814608,-116.57344044018885
NV4077511569719860702,RESEVOIR,1986,2086.0,40.774471969786205,-115.69699772542394
NV4058811598319860807,GRINDSTONE,1986,2128.0,40.58671268110179,-115.98140558871427
NV3964711579119860805,COLD CREEK,1986,3740.0,39.64776759070956,-115.79326814007136
NV3748111593919860628,USAF 2,1986,17410.0,37.49611401057219,-115.92638148126032
NV4117411783019860612,SLUMB 1,1986,2391.0,41.17348713755804,-117.8338359598089
NV4185611762919860624,NATIONAL,1986,16603.0,41.85674516414557,-117.62721759596019
NV4097511756119860624,BUTTON PT2,1986,4359.0,40.97691620929255,-117.56101004817194
NV4054611766419860624,SPAULDING,1986,4537.0,40.54414700098485,-117.65696536051286
NV4127411802919860628,SLEEPER,1986,2992.0,41.27646947529321,-118.02189302272707
NV4078711710219860703,SPRR 1,1986,1427.0,40.77626043239426,-117.08764177831993
NV4066411793219860810,BARBER CYN,1986,2438.0,40.66541857456209,-117.93649659305329
NV4103311738619860810,PREBLE,1986,14968.0,41.02991751481588,-117.38348173633105
NV4044911774819860905,SWEENEY,1986,2322.0,40.44966926152801,-117.74460725495834
CA3378511752419860604,BEDFORD 1,1986,1242.0,33.78337095419212,-117.52478098347338
CA3643411883319861006,SALT CREEK VMP,1986,1225.0,36.43284970460501,-118.8328440630086
CA3437711869019861030,SALT/TAPO BURN,1986,4188.0,34.37675252059297,-118.69227705812578
CA4057212208419860801,MOSEMAN RANCH,1986,1853.0,40.57298940771365,-122.08498170651401
CA3806112069019861022,BEAR MTN. 6,1986,1583.0,38.05967274269417,-120.68840210979927
CA3463411989219860915,UNNAMED,1986,4396.0,34.63601578232919,-119.89030109125346
CA3504012031719860830,UNNAMED,1986,1353.0,35.040287099336446,-120.31769132532044
CA3439611859519860827,VALENCIA BURN,1986,2864.0,34.39912934634559,-118.59513164939169
CA3680411928319860729,UNNAMED,1986,1071.0,36.80355367964492,-119.28526630458025
CA3765612152919860609,UNNAMED,1986,2811.0,37.66276000119091,-121.53567897495694
CA3665912086319860602,PANOCHE 2,1986,1556.0,36.65892224839853,-120.86367164602396
CA3644512127719860524,BRYANT CANYON,1986,2119.0,36.447819587557426,-121.28170456909675
CA3589512061419860617,DEER VALLEY RANCH,1986,1031.0,35.89503991141695,-120.6145686230158
CA3474511837119860817,POPPY FIRE,1986,1227.0,34.74176370226728,-118.37487307595951
CA3389911714619860529,WILMOT,1986,1720.0,33.900095778260685,-117.14574501370011
CA3518512041619860826,RANCHITA,1986,1895.0,35.18164468010169,-120.41587321645552
CA3503412024819861025,SUEY RANCH WEST,1986,1262.0,35.03398751325891,-120.25020358909576
CA3431211905819861110,BRADLEY,1986,10100.0,34.30825441330798,-119.06047491242117
CA3342311748319860512,UNNAMED,1986,16390.0,33.436070692903755,-117.47632114765753
NV4188511756119860810,8 MILE 2,1986,3806.0,41.86955378344286,-117.55879755156552
CA3883011980819860716,FREDRICKSBURG,1986,3598.0,38.82983723097355,-119.80771149081872
CA3462911830219860703,LEONA,1986,1019.0,34.63095069745353,-118.29801751122643
CA3426011789019860720,TECALOTE,1986,4085.0,34.26306771487451,-117.8931635744993
CA3294811674719860713,CAPTAIN,1986,1824.0,32.94861631925963,-116.74517128200083
CA3635212179519861106,BOTTCHER,1986,2682.0,36.35201812523558,-121.79742010229066
CA3692111925619860721,SYCAMORE,1986,1165.0,36.92038929491422,-119.25734165888072
CA3687111893619860909,DEER,1986,10963.0,36.8744189908684,-118.93828105907933
CA3775711971519860727,CASCADE CR,1986,2068.0,37.7587397183283,-119.71635606415738
CA3305111672519860613,UNNAMED,1986,1108.0,33.05354676151032,-116.72337778099791
CA3344311742819860731,UNNAMED,1986,2541.0,33.43783429477613,-117.41326774480684
CA3455611830319860327,UNNAMED,1986,1465.0,34.55514008593114,-118.30356787515713
CA3538011881119860519,UNNAMED,1986,1513.0,35.372480921625744,-118.8190454684004
CA4103912036619860101,DRY CREEK,1986,2357.0,41.034287843640016,-120.37249497629905
NV4173311560119860807,DEVILSGATE,1986,3069.0,41.36788276464348,-115.84505969044426
CA3800011991819860927,ELEANOR,1986,1441.0,38.005473428768326,-119.84993263572767
CA3547311855319880811,HAVILAH,1988,1413.0,35.4750886459766,-118.55277845629891
CA3924412120719880911,49R,1988,36673.0,39.2460330112193,-121.19497270655627
CA3668912074319880620,LIGHTNING9,1988,3878.0,36.686914700284845,-120.74563105906478
CA3547911989719880619,TWISSLEMAN,1988,1823.0,35.478117701914194,-119.8983407051976
CA3827912046919880719,MASON,1988,4151.0,38.278929082981314,-120.46869011812073
CA3443711869619880903,PIRU,1988,14273.0,34.44000799812931,-118.69899144238214
CA4076612049819880829,BRANHAM II,1988,1850.0,40.76302418537363,-120.49743869129725
CA3843012209419880917,MILLER,1988,35750.0,38.43576024574556,-122.0891208106848
CA3887712227519880911,RUMSEY,1988,1394.0,38.87483446163983,-122.27508825123091
CA3861512212419880918,BLUE RIDGE,1988,5130.0,38.609334232089765,-122.12315901523066
NV3990211977719880722,OLDS RNCH,1988,3044.0,39.899258349322736,-119.77382110617128
NV3914911979119880810,KINGS CYN,1988,1824.0,39.1482099523118,-119.79174231355114
NV4017611583819880726,SADLER,1988,6958.0,40.17415840388406,-115.8361150244594
NV4099511599919880801,BLUEBASIN,1988,2756.0,40.99181192515266,-115.99658135239149
NV4054311605319880827,FERDELFORD,1988,3989.0,40.540372691322176,-116.05612263500151
NV3695511644419880624,DOE 1,1988,6884.0,36.95894112228353,-116.45150058786929
NV3647211592519880709,STERLING,1988,1340.0,36.474245742734986,-115.92460185474356
NV3728511667919880811,USAF 4,1988,14702.0,37.271667164408555,-116.68874212288274
NV4118211709219880717,KELLYCREEK,1988,1975.0,41.18347938354606,-117.09381178260831
NV4183511833819880829,RODEO,1988,9026.0,41.84192183555203,-118.33836038463241
NV4068311767119880903,ST CLAIR,1988,3371.0,40.68088958302881,-117.66910446327127
CA3429911924119880526,HALL-BARLOW CONTROLL,1988,2150.0,34.30006840647088,-119.23962111103393
CA3716011953619880709,WYLE VMP 2,1988,1094.0,37.15993428320639,-119.53753116481855
CA3633511885119880901,GROUSE VMP,1988,1675.0,36.33205313796341,-118.84865701551222
CA3511212049519881014,CAMPODOCINO,1988,1252.0,35.11340592851326,-120.49460582109131
CA4020712190719880818,GRAPEVINE,1988,1671.0,40.20688613152045,-121.90869717550565
CA3883512314319880816,COOLEY VMP,1988,2542.0,38.835534230414886,-123.14170122499615
CA3459611987319880819,UNNAMED,1988,4709.0,34.59600849329069,-119.8745292375417
CA3570411999419880702,UNNAMED,1988,2319.0,35.70375163850205,-119.99835468949054
CA3574212003519880702,UNNAMED,1988,3963.0,35.741820894546045,-120.02883878817221
CA3491611929919880621,SANTIAGO,1988,1623.0,34.91654113733223,-119.29761978776966
CA3282111703419880903,ASSIST 78,1988,1025.0,32.82090430381748,-117.03406103847361
CA3698511863819880721,SIMPSON,1988,1087.0,36.98600256194527,-118.63891038202848
CA3431111853219881209,SESNON FIRE,1988,2508.0,34.31154182268669,-118.53312536156125
CA3428811864819880904,KEUHNER FIRE,1988,3907.0,34.291623446425135,-118.65148108291632
CA4124512068419880810,LIGHTNING 97 (BISON),1988,3425.0,41.246980820502536,-120.68417827471566
CA4086712159919880829,BURNEY FIRE,1988,3036.0,40.865246191558604,-121.59824573070853
CA3928112277719881115,UNNAMED,1988,3312.0,39.28095029362247,-122.77362458576128
CA3350811760519880830,ORTEGA,1988,2269.0,33.50551772182469,-117.60118062136785
CA3378111712319880904,STAGECOACH,1988,4037.0,33.78140443892778,-117.12751555328543
CA3360411705719880909,BENTON,1988,1367.0,33.60506501352537,-117.05927721673694
CA3373811736919881209,EL TORRO,1988,1063.0,33.73748499738753,-117.36872279681758
CA4065712187419880917,FERN,1988,6412.0,40.65680923140869,-121.88956206590626
CA3879412296619880824,RIVER,1988,1446.0,38.789749755115025,-122.95437451000473
CA3790412042919880626,LIGHTNING 84 (STENT,1988,1155.0,37.90452177034954,-120.42807952450919
CA3827012082019880628,PARDEE,1988,1537.0,38.25679340525355,-120.80855328318938
CA3833812046719880721,BRIDGE,1988,6775.0,38.34007356597036,-120.46843659701058
CA3621211899819880622,LINDSAY,1988,1005.0,36.21051376901808,-118.99652059340852
CA3344611748819880602,UNNAMED,1988,2262.0,33.44501388637549,-117.49082882864246
NV4178911761219880711,CANYON CREEK,1988,2487.0,41.78887780988133,-117.61126936645755
NV4193311758519880903,TWO MILE,1988,3691.0,41.92980823501385,-117.57815041601361
CA3435411839219881016,DIVIDE,1988,3969.0,34.35075507403141,-118.39163188960232
CA3527812039719880717,CAMP,1988,5618.0,35.2775535398818,-120.40295687470227
CA3965812261019880826,POWDERHOUSE,1988,1691.0,39.66036898828493,-122.61238742443972
CA3390411683719880817,PASS,1988,1871.0,33.902368456415346,-116.8369811335121
CA4018412304519880928,HERMIT,1988,7675.0,40.18471663638359,-123.04574746440105
CA3767311988019880702,CLEARHOUSE,1988,2274.0,37.674395205755076,-119.8799552078948
CA3687711901119880830,GARNET,1988,1454.0,36.876981859918196,-119.01035666261738
CA3335711682319880602,UNNAMED,1988,1393.0,33.35263399720102,-116.83499709960665
CA3362611673419880602,UNNAMED,1988,1587.0,33.62616287189999,-116.73518369835878
CA3460611971319880328,UNNAMED,1988,3588.0,34.604704523167456,-119.7115356820264
CA3548311871319880711,UNNAMED,1988,1756.0,35.47862535047464,-118.71120435123828
CA3654311874419881016,BUCKEYE,1988,3007.0,36.541302939256795,-118.74460748632185
CA3775211942619880621,ECHO,1988,1393.0,37.753382072906675,-119.42364542504144
CA3767611948419880818,ALASKA,1988,1418.0,37.67553988237273,-119.48229960616695
CA3777411973519880620,WALKER,1988,3130.0,37.771214674210654,-119.73700449815797
CA3396111657819880704,UNNAMED,1988,1523.0,33.967496665163516,-116.55954415051195
NV3691011646719880624,UNNAMED,1988,1384.0,36.90896379761662,-116.46813726122917
CA3875312191819881020,UNNAMED,1988,5571.0,38.751685746088995,-121.91908027161642
CA3983012174519880902,UNNAMED,1988,1217.0,39.830612354716244,-121.74671142679155
NV4195011556819881027,BEAR PAW,1988,3980.0,41.98500192673192,-115.55306136507683
CA4064812202819880818,TAYLOR,1988,1145.0,40.649413036335254,-122.02539218032317
CA3794011965419880620,ELECONTE,1988,1675.0,37.94120950483476,-119.65543545734467
CA3877412284019880910,UNNAMED,1988,5076.0,38.77458132793479,-122.85332361954859
CA3687811884419880724,OBELISK,1988,5675.0,36.87704457677273,-118.84521690812922
CA3418811749019880928,TEXAS,1988,10515.0,34.18704501477417,-117.49636706456418
CA4161212400419880911,KLAMATH,1988,7126.0,41.615272616428,-124.00313911051829
CA3504111860819900807,TEJON,1990,7659.0,35.039618016233305,-118.60390840352763
CA4069212019419900808,SHINN,1990,17966.0,40.68773313562872,-120.18993615656285
CA4004112182419900806,CAMPBELL,1990,128266.0,40.071547102406754,-121.79317517825382
CA3969012006719900803,TOF 33,1990,1041.0,39.68811557172051,-120.06629411235758
NV4135711708019900629,KELLYCREEK,1990,1534.0,41.35984009784644,-117.07436137139022
CA3904612307019900327,HOPLAND VMP,1990,3588.0,39.05255536710526,-123.0744544341411
CA4106412030719900929,MEEKS CANYON VMP C,1990,2395.0,41.06640985979917,-120.30429174202801
CA4034212258719900809,BALD,1990,3447.0,40.3437283694942,-122.58796287281835
CA3901912260719900323,LONG VALLEY VMP,1990,1399.0,39.02628227559528,-122.61587957111342
CA3515012032019900910,UNNAMED,1990,1498.0,35.147287934397475,-120.32083265943172
CA4035512379119900808,PEAKS,1990,1734.0,40.346102972210694,-123.80004917503298
CA4003612349819900923,ISLAND,1990,1475.0,40.036566028472635,-123.49827662373355
CA3396711778919900627,CARBON CANYON FIRE,1990,4973.0,33.95047434394564,-117.7879549681979
CA3896112250819900627,EAGLE,1990,2508.0,38.9481701481485,-122.51931505871018
CA3319711666019900628,MORRETTIS,1990,4718.0,33.19771661836689,-116.65820762719662
CA3305811714419900910,PAINT,1990,3105.0,33.06264520375558,-117.14365513860076
CA3737412152919900717,LONG GULCH,1990,1394.0,37.37426363859401,-121.52909663966186
CA3655211908319901008,GRAPEVINE,1990,2367.0,36.55090185949652,-119.08433066766507
NV4134411589619900808,SAVAL,1990,11666.0,41.34422593667699,-115.88637883307462
CA3379611753919900624,BEDFORD,1990,4245.0,33.79487010567412,-117.54132350504742
CA4118412131019900810,CAMPBELL,1990,4803.0,41.18577728356441,-121.31987795863284
CA3446911978419900627,PAINT,1990,4762.0,34.47789371507623,-119.7800065749777
CA3979312286719900809,LINN/RECER/ELKHORN,1990,3433.0,39.7935523457688,-122.86795139584397
CA4175612054919900712,CROWDER MOUNTAIN,1990,1018.0,41.756845553387706,-120.54650865530151
CA3998912070119900806,WALKER,1990,1125.0,39.988154337260056,-120.70059853802127
CA3580411852619900805,STORMY,1990,23157.0,35.804676119742155,-118.52100886354702
CA4072312226319900808,BOW,1990,1558.0,40.72328605050535,-122.26259934481568
CA3689811917919900720,KIRCH,1990,3131.0,36.90316174425886,-119.1759188981587
CA3764911987819900830,SAVAGE,1990,2224.0,37.63865696061179,-119.86919680767352
CA3800512019819900913,COTTONWOOD COMPLEX,1990,2517.0,38.00558568958325,-120.19746432396592
CA4179212152919900814,ROSS,1990,3829.0,41.79279786959536,-121.52753115795204
CA3676311859919900713,AVALANCHE1,1990,2560.0,36.76352788768726,-118.59824225720558
CA4055912254919900808,KANAKA,1990,3019.0,40.55991553196958,-122.54923733437882
CA3768511970219900807,STEAMBOAT,1990,6004.0,37.68355396179932,-119.69845836132578
CA4015912260019900830,UNNAMED,1990,4885.0,40.159096983202474,-122.59680569299368
CA4026112188919900430,UNNAMED,1990,1650.0,40.26044297512013,-121.89242604817295
CA3345011741819901027,CASE,1990,2428.0,33.431438093768946,-117.43957866702924
ID4203311578419900729,RATTLER,1990,1112.0,42.008897289865544,-115.8263897743547
CA3524311850019900223,TWEEDY,1990,1233.0,35.24314213317903,-118.50146176920434
NV4080011756819900808,POLE CREEK,1990,1023.0,40.910863515250604,-117.57461480185152
CA4037912289019900228,DITCH GRADE CRMP,1990,1287.0,40.38440677258248,-122.89942924816754
CA3311711533419901106,YOCUM,1990,1006.0,33.1107504110705,-115.3426556288724
CA3800511979219900813,LAUREL LAKE 2 AND FROG 2,1990,1137.0,38.0000232816018,-119.79276046291619
CA4079412042519900808,BRANHAM,1990,9557.0,40.78618644743737,-120.42500875032717
CA3770211978619900807,A-ROCK,1990,17706.0,37.68947846255402,-119.80079299120727
CA4033912181119900809,FINLEY,1990,22239.0,40.338512795711644,-121.8038199714769
CA3498911865719920822,MIDDLE RIDGE,1992,5362.0,34.988332636792535,-118.65253490293914
CA3761412019719920523,HUNTER,1992,1384.0,37.613336165665245,-120.19752478337858
CA3592012099119920604,JOLON,1992,1579.0,35.91997550550524,-120.98918390796024
CA4084612185219920820,FOUNTAIN,1992,62340.0,40.83727691934795,-121.85164119896395
NV4061111623519920722,BARTH,1992,2807.0,40.597448492235436,-116.23498324272323
NV4090711651019920728,BOULDER,1992,1041.0,40.905258983342534,-116.51037068066637
NV4045511626119920801,FRENCH FLT,1992,1995.0,40.45401497730862,-116.26124405064179
NV4093711789319920611,BLUPLATEAU,1992,1161.0,40.9367463440845,-117.89192720366844
NV4095411790419920728,JUNGO,1992,1282.0,40.95473660072613,-117.90150488676625
CA3659111879319921004,SUWANEE R,1992,1614.0,36.59023805066003,-118.79368506345303
CA3719512134019921210,MUSTANG PEAK,1992,2465.0,37.19764267864087,-121.33693336339793
CA3558912020619920729,UNNAMED,1992,1208.0,35.59016764346034,-120.20717343695446
CA3686512120119920501,UNNAMED,1992,1106.0,36.862921845813894,-121.1985486871152
CA3885512126919920820,UNNAMED,1992,1537.0,38.854084782255704,-121.27018427262495
CA4043712280619920803,UNNAMED,1992,5345.0,40.415006016695216,-122.83498838192254
CA3859112106719920621,SMUD 1,1992,1274.0,38.59143435955479,-121.06498171107908
CA3936312151419920925,VILLA,1992,7022.0,39.3634759937921,-121.51301622865971
CA3923312230719920921,LIGHTENING FIRE,1992,1278.0,39.235485120558856,-122.3057507356739
CA3898712265419920920,BORAX FIRE,1992,1496.0,38.988292399671714,-122.65561126254472
CA3745712036519920712,SNELLING,1992,2214.0,37.458673670467945,-120.36681867106833
CA3274911631019920719,MANZANITA,1992,1091.0,32.74911788013693,-116.3089992940145
CA3343911711919920927,RAINBOW,1992,2711.0,33.43928658626327,-117.11805653346508
CA4022112203419920717,HOG 2,1992,1441.0,40.22854864590435,-122.04108016501262
CA3592712121419920821,UNNAMED,1992,10235.0,35.926272687956775,-121.22263049980454
CA3598012129819920704,UNNAMED,1992,2072.0,35.97935094225267,-121.2961572473835
NV4194111569219920610,TIMBER GULCH,1992,1301.0,41.939678427109804,-115.69344502950915
NV4185211558419920802,COFFEE POT,1992,37655.0,41.856152890860386,-115.56590026968982
NV4179611756519920802,CANYON,1992,7816.0,41.79396289346782,-117.56586909727116
NV4140411592119920804,CALIFORNIA CREEK,1992,1262.0,41.404674375506715,-115.92164091033871
NV4038611544819920829,DAWLEY CREEK,1992,2384.0,40.3867372834686,-115.44864971984003
CA3454511867119920720,DEVIL,1992,1319.0,34.5466784687035,-118.67301871628837
CA3278911673019920718,LOVELAND,1992,1941.0,32.781791865014924,-116.71629900542193
CA3883312043219920929,CLEVELAND,1992,21835.0,38.80257588210324,-120.3998711757707
CA3622012145819920801,SECO,1992,2684.0,36.22041610734497,-121.45836269527894
CA3626512166519920805,UNNAMED,1992,1013.0,36.267988455662994,-121.66714581244312
CA3596512134519920817,SLICKROCK,1992,2451.0,35.96723668485275,-121.34536913664076
CA4125912377919920919,MARTIN,1992,1325.0,41.23901552376541,-123.7626956804791
CA3368511691219920531,CACTUS,1992,1226.0,33.68434947940965,-116.91188607566222
CA3557011859019920524,CALL BOX,1992,1610.0,35.57377056895222,-118.58740141540866
CA4061012305619920820,BARKER,1992,5276.0,40.610460229098216,-123.05238230709921
CA3715011941919920813,ITALIAN,1992,1632.0,37.14889447518755,-119.41960317096395
CA3818112047719920816,GULCH,1992,18019.0,38.18503598058136,-120.47752753345114
CA3814512019519920907,RUBY,1992,3988.0,38.143571534960444,-120.19651416018863
OR4200712090719920819,FORT SPRING,1992,1685.0,42.00640021509674,-120.90675272002537
CA3591911943419920612,TURKEYTR,1992,1178.0,35.912258220433266,-119.40987706928045
CA3765412152819920609,UNNAMED,1992,2569.0,37.660501252952585,-121.53182483279404
CA3337411754319921106,BRAVO,1992,1974.0,33.408618645612,-117.52299422846485
CA4161712128419920622,TIMBER,1992,1271.0,41.630351940572346,-121.27205251714203
CA3783912030019920801,MOCCASIN,1992,9565.0,37.8337207806199,-120.29363507190533
CA3759211908519920820,RAINBOW,1992,7870.0,37.59544134999279,-119.08476611217135
CA3967412169519920925,BURTON,1992,6169.0,39.669238452517334,-121.69276973097102
NV4063611595419920802,DIXIE CRK,1992,14792.0,40.65299558066416,-115.92497587193131
CA3520611991719940523,SODA,1994,3423.0,35.205484303491424,-119.92159202602357
CA3537611880519940530,BRECKENRIDGE,1994,2447.0,35.3743344975265,-118.81153759359975
CA3585112017919940612,YORK,1994,1022.0,35.85102997794028,-120.17970046736892
CA3564211844219940614,LAKELAND,1994,2717.0,35.64266769244079,-118.4411345553629
CA3574711817719940621,WHITE BLANKET,1994,2564.0,35.74525711535922,-118.17571382089824
CA3490911972919940730,ALISO,1994,3404.0,34.90377633676185,-119.72676831824448
CA3881312080119940807,KELSEY,1994,1001.0,38.81483329897708,-120.80058033486031
CA3539212068319940814,41,1994,48441.0,35.38673023963555,-120.67756854353566
CA3500411993619940908,SPANISH,1994,3266.0,35.00783049405759,-119.93929614412319
CA3344811666519940624,BAILEY,1994,7092.0,33.44975666801621,-116.66778196022146
CA3392911707419940724,GILMAN,1994,2161.0,33.92534879551314,-117.07341217851507
CA3515511711219940813,OPAL 2,1994,1458.0,35.15267725648683,-117.1141659931168
CA4001412013619940603,DOYLE,1994,2112.0,40.01682561271826,-120.13444936880926
CA4125412043319940723,TABLE,1994,2214.0,41.25299871776374,-120.43458557103551
CA4127212044719940831,NELSON,1994,2633.0,41.272600205936,-120.44946385236419
CA4075512062319940918,LMU LGT66,1994,2114.0,40.776531131927385,-120.61993349929618
NV3995511645919940717,SIMPSON,1994,1650.0,39.95413738507922,-116.45995116862761
NV3980911996619940714,HALLELUJAH,1994,13040.0,39.8120971282056,-119.9710262961616
NV3878311952819940808,HOLBROOK,1994,6320.0,38.786098192731195,-119.52256751273104
NV4112511601319940716,LONE MTN,1994,11074.0,41.145134151508856,-116.00477139010329
NV4145411657219940717,MAHOGANY,1994,10189.0,41.452245074358785,-116.57559585720438
NV4158611622819940722,IL,1994,1267.0,41.60197829091823,-116.23723716809656
NV4068011602019940724,RAIN,1994,10071.0,40.6870128069623,-116.02357211711804
NV4177611648919940823,DESERT 3,1994,6586.0,41.774599765910196,-116.49290856448
NV4042011955819940716,RODEO,1994,1112.0,40.41921114783706,-119.55604987875041
NV4129511775419940731,MOORE,1994,24435.0,41.29326224282769,-117.76452555866166
NV4107611738619940829,PORPHYRY,1994,3647.0,41.07638941253787,-117.38192203754048
CA3729712160119941114,LEDEIT,1994,1873.0,37.2965387495617,-121.60088203597994
CA3732412142819941013,MT. STAKES,1994,1470.0,37.32436096504243,-121.4269554441853
CA4059912202419941001,MORROW,1994,1039.0,40.5969569781843,-122.02699617515714
CA3540011996019940703,UNNAMED,1994,1010.0,35.40006157514959,-119.9612554469226
CA3542712003119940703,UNNAMED,1994,2908.0,35.42390877243818,-120.03280456412911
CA3559312038819940624,UNNAMED,1994,1591.0,35.592734365567445,-120.39257050583727
CA3860812119119940701,UNNAMED,1994,1742.0,38.60695549173062,-121.2001124519924
CA3430511718019940814,UNNAMED,1994,1043.0,34.30574993382056,-117.1792416595951
CA3590412071619940624,BASHAM,1994,1338.0,35.90668017195386,-120.71768459838647
CA3954912157219940611,TABLE,1994,1209.0,39.550948628177515,-121.57068772311031
CA3260411692519941009,OTAY,1994,2229.0,32.606019653973576,-116.92979957307422
CA3289211698019940112,ROCOSO,1994,2233.0,32.89335509759627,-116.97778495795879
CA3369211686719940627,FAIRVIEW,1994,1676.0,33.693829129104664,-116.86693553776641
CA3382011694719940627,GILMAN,1994,2121.0,33.82217610725212,-116.94760840999561
CA3473112044619941009,OAK HILL,1994,1987.0,34.729716792863876,-120.44915905906501
CA3764112147219940811,WHEEL 1  2,1994,1484.0,37.64744252699506,-121.47701926471278
CA4072112286319940712,BROWNS,1994,1782.0,40.72148831464112,-122.86545043420416
CA3798812063119940629,COPPER 8,1994,1750.0,37.98728488380921,-120.62850378394761
NV4174111556219940728,PRUNTY,1994,2109.0,41.74243107934331,-115.559552700766
NV4190511570319940724,BIG TABLE,1994,2222.0,41.90708471678777,-115.7007501568447
CA3439011764219940625,SCOUT,1994,3488.0,34.391650386401345,-117.64041446134594
CA3446011804519940625,SHOOTING,1994,4094.0,34.45716098853099,-118.05133051060919
CA3318211683219940626,SECOND,1994,5351.0,33.18734060718987,-116.83163849719028
CA4172412354619940721,BEAR,1994,1697.0,41.722191433570416,-123.54670674882307
CA4162312361019940722,JACK 1,1994,28007.0,41.6134731026511,-123.60627080301174
CA4136312315119940919,SPECIMEN,1994,7156.0,41.36938359138972,-123.1480334025005
CA4012012175619940918,BARKLEY,1994,44256.0,40.11850110681242,-121.75778078945362
CA3988312279019940827,SUGARFOOT,1994,2776.0,39.884760753145095,-122.79134062613392
CA3364111652219940701,PALM,1994,21040.0,33.63807784802076,-116.51099171343205
CA3433711710219940703,DEVILS,1994,12778.0,34.34127596811081,-117.09661870509281
CA3721411927319940824,BIG CREEK,1994,5401.0,37.21687318356317,-119.26975438028391
CA3806612033419940809,CREEK,1994,1498.0,38.06508384848943,-120.33217710761356
CA3951712003719940804,CRYSTAL,1994,7387.0,39.52383552833597,-120.02807412226895
CA3939912006519940811,HIRSCHDALE,1994,1273.0,39.394000059575625,-120.06483611653177
CA3960112019319940816,COTTONWOOD,1994,47912.0,39.60035087103043,-120.1846453610181
CA3370611680419940619,UNNAMED,1994,1575.0,33.70781368333991,-116.80486436118235
CA3461911968819940601,UNNAMED,1994,1807.0,34.617457509630654,-119.68889911398112
CA3525911502319940628,FORT PIUTE,1994,6350.0,35.25979228404135,-115.02250161374238
CA3646712120519940805,PINNACLES,1994,1131.0,36.46627378443556,-121.20719361554845
CA3765511953619940809,HORIZON,1994,3246.0,37.65720779289171,-119.53126867929474
NV4170111623719940813,UNNAMED,1994,2583.0,41.70188995917579,-116.23853538180794
NV3656111516419940628,UNNAMED,1994,1488.0,36.55964623909419,-115.1670626350981
CA4192312151019940121,TULE MARSH,1994,2129.0,41.92058242615397,-121.51635863220115
CA3445011831819941008,AGUA DULCE,1994,1180.0,34.4432821293511,-118.35110991025938
CA3506011866219941003,FORT,1994,1042.0,35.061567048170275,-118.66333472747714
CA3715011953419940912,WYLE,1994,1393.0,37.16063653743662,-119.53790684581257
CA3548311895119940425,SMOOT,1994,1666.0,35.48051550439312,-118.9531916368024
CA3920312313019940420,POULOUS WARD VMP,1994,1207.0,39.198951414610065,-123.12628974167475
NV4161711930119940717,BADGER,1994,8238.0,41.613823438414904,-119.29843867346624
CA3547311869919940627,LUCAS COMPLEX,1994,9181.0,35.47467994530378,-118.69272060517703
CA3791511989919940118,NORTH MOUNTAIN,1994,2678.0,37.91026783521303,-119.89428502126873
